,City,Cloudiness,Country,Date,Humidity,Lat,Lng,Max Temp,Wind Speed
0,Mataura,100,NZ,1566702497,96,-46.19,168.86,48.0,4.0
1,Karibib,0,NA,1566702498,23,-21.94,15.86,56.55,8.1
2,Vaini,40,IN,1566702499,94,15.34,74.49,69.8,6.93
3,Jamestown,90,AU,1566702356,58,-33.21,138.6,49.51,7.43
4,San Miguel de Cauri,100,PE,1566702502,97,-10.1,-76.58,33.99,3.2
5,Altay,0,CN,1566702503,39,47.83,88.13,57.97,4.34
6,Weston,20,US,1566702504,87,41.2,-73.38,68.0,4.7
7,Vardo,1,US,1566702505,72,39.62,-77.74,66.0,3.56
8,Pisco,90,PE,1566702507,82,-13.71,-76.2,60.8,10.29
9,Airai,0,TL,1566702508,47,-8.93,125.41,82.29,6.2
10,Busselton,0,AU,1566702509,72,-33.64,115.35,57.99,8.3
11,Punta Arenas,0,CL,1566702510,75,-53.16,-70.91,41.0,12.75
12,Palmer,75,AU,1566702512,62,-34.85,139.16,57.99,12.75
13,Nome,1,US,1566702513,88,30.04,-94.42,82.99,5.82
14,Kahului,40,US,1566702242,55,20.89,-156.47,89.6,18.34
15,Hithadhoo,100,MV,1566702515,72,-0.6,73.08,82.49,11.27
16,Bluff,4,AU,1566702516,40,-23.58,149.07,72.46,2.98
17,Harbin,75,CN,1566702518,73,45.77,126.62,73.4,4.47
18,Nikolskoye,29,RU,1566702519,93,59.7,30.79,53.01,6.71
19,Ugoofaaru,80,MV,1566702520,77,5.67,73.0,82.22,15.46
20,Sabha,0,LY,1566702521,36,27.03,14.43,76.31,8.86
21,Kalmunai,99,LK,1566702522,52,7.42,81.82,86.03,2.86
22,Cape Town,40,ZA,1566702449,93,-33.93,18.42,57.99,8.05
23,Albany,75,US,1566702525,63,42.65,-73.75,66.2,6.93
24,Sovetskoye,0,RU,1566702526,55,51.44,46.74,63.0,1.99
25,Bogorodskoye,100,RU,1566702527,73,52.37,140.44,54.1,4.41
26,Hermanus,1,ZA,1566702528,83,-34.42,19.24,55.99,7.0
27,Padang,100,ID,1566702530,80,-0.92,100.36,80.07,13.11
28,Klaksvik,34,FO,1566702531,93,62.23,-6.59,51.8,17.22
29,Kaitangata,100,NZ,1566702532,74,-46.28,169.85,50.0,5.99
30,Rikitea,64,PF,1566702533,69,-23.12,-134.97,70.25,21.27
31,Kodiak,90,US,1566702535,77,39.95,-94.76,70.0,9.17
32,Thompson,90,CA,1566702536,93,55.74,-97.86,66.2,5.82
33,Provideniya,67,RU,1566702537,56,64.42,-173.23,55.14,5.61
34,Zheleznogorsk-Ilimskiy,100,RU,1566702539,71,56.58,104.12,57.52,4.25
35,Sitka,89,US,1566702540,81,37.17,-99.65,75.99,8.99
36,Ushuaia,20,AR,1566702541,75,-54.81,-68.31,41.0,4.92
37,San Cristobal,8,HN,1566702542,84,14.68,-86.92,68.82,4.54
38,Hilo,90,US,1566702544,62,19.71,-155.08,84.2,11.41
39,Kruisfontein,0,ZA,1566702545,63,-34.0,24.73,52.12,5.73
40,Kachug,100,RU,1566702546,48,53.96,105.89,62.92,5.99
41,Port Alfred,0,ZA,1566702547,51,-33.59,26.89,62.01,1.01
42,Marietta,90,US,1566702410,83,33.95,-84.55,78.8,11.41
43,Khatanga,20,RU,1566702550,70,71.98,102.47,59.45,7.45
44,Rozkishne,0,UA,1566702551,85,48.5,37.59,64.16,8.19
45,Giaveno,0,IT,1566702552,88,45.04,7.35,71.01,4.7
46,Pleasanton,1,US,1566702349,41,37.66,-121.87,78.8,10.29
47,New Norfolk,75,AU,1566702555,50,-42.78,147.06,52.0,11.41
48,Nishihara,20,JP,1566702556,69,35.74,139.53,90.0,4.7
49,Atuona,0,PF,1566702557,70,-9.8,-139.03,79.43,13.13
50,Lakes Entrance,41,AU,1566702558,49,-37.88,147.99,59.0,1.99
51,Victoria,75,BN,1566702559,74,5.28,115.24,87.8,2.24
52,Norman Wells,40,CA,1566702561,66,65.28,-126.83,53.6,4.7
53,Hobart,75,AU,1566702434,50,-42.88,147.33,52.0,11.41
54,Tigil,100,RU,1566702563,66,57.8,158.67,59.93,10.98
55,Coihaique,40,CL,1566702564,93,-45.58,-72.07,39.2,5.82
56,Teahupoo,40,PF,1566702566,61,-17.83,-149.27,82.4,9.17
57,Gigmoto,100,PH,1566702567,75,13.78,124.39,83.48,7.16
58,Takaka,96,NZ,1566702568,85,-40.86,172.81,62.01,5.01
59,Ribeira Grande,5,PT,1566702569,79,38.52,-28.7,69.51,15.35
60,Avera,90,US,1566702571,83,33.19,-82.53,75.2,9.17
61,Quatre Cocos,75,MU,1566702572,88,-20.21,57.76,69.8,8.05
62,Upernavik,100,GL,1566702573,68,72.79,-56.15,43.03,9.98
63,Iskateley,100,RU,1566702574,81,67.68,53.15,43.23,11.54
64,Bredasdorp,0,ZA,1566702575,93,-34.53,20.04,48.2,1.12
65,Vanimo,99,PG,1566702577,72,-2.67,141.3,83.01,8.46
66,Bethel,1,US,1566702578,45,60.79,-161.76,62.6,6.93
67,Pahrump,1,US,1566702579,9,36.21,-115.98,96.8,10.58
68,Duldurga,100,RU,1566702580,98,50.67,113.59,54.55,5.82
69,Nanortalik,94,GL,1566702582,72,60.14,-45.24,42.96,2.21
70,Darhan,91,MN,1566702583,74,49.49,105.92,60.09,5.53
71,Zunyi,0,CN,1566702584,59,27.73,106.92,83.75,1.57
72,Aklavik,90,CA,1566702585,57,68.22,-135.01,50.0,4.7
73,Saint George,0,GR,1566702587,72,39.45,22.34,79.0,2.42
74,Lompoc,1,US,1566702588,88,34.64,-120.46,69.8,6.93
75,Coronel Bogado,0,PY,1566702589,68,-27.16,-56.24,64.4,5.82
76,Talara,3,PE,1566702590,91,-4.58,-81.27,62.4,14.54
77,Peniche,20,PT,1566702592,88,39.36,-9.38,64.4,8.05
78,Moerai,16,PF,1566702593,69,-22.43,-151.33,70.98,9.13
79,Amazar,0,RU,1566702594,51,53.86,120.88,71.54,5.26
80,Tiarei,40,PF,1566702595,61,-17.53,-149.33,82.4,9.17
81,Kavaratti,90,IN,1566702596,83,10.57,72.64,80.6,6.93
82,Butaritari,81,KI,1566702598,68,3.07,172.79,84.92,6.91
83,Pevek,26,RU,1566702599,73,69.7,170.27,44.79,8.03
84,Concarneau,90,FR,1566702600,100,47.88,-3.92,61.0,3.36
85,Necochea,34,AR,1566702602,83,-38.55,-58.74,46.0,11.01
86,Kapaa,90,US,1566702603,66,22.08,-159.32,89.6,14.99
87,Sola,99,TZ,1566702605,57,-3.17,33.8,68.28,8.84
88,Bowmore,90,US,1566702606,88,34.94,-79.3,66.99,14.99
89,Guangyuan,6,CN,1566702607,60,32.43,105.86,91.0,2.37
90,Kaeo,70,NZ,1566702608,90,-35.1,173.78,61.0,3.0
91,Robstown,90,US,1566702609,83,27.79,-97.67,84.2,8.05
92,Machico,20,PT,1566702611,73,32.7,-16.77,71.6,18.34
93,Yellowknife,20,CA,1566702612,72,62.45,-114.38,60.8,3.36
94,Kongolo,74,CD,1566702613,40,-5.39,27.0,73.22,3.24
95,Aranos,0,NA,1566702615,22,-24.14,19.11,51.9,8.03
96,Georgetown,0,GY,1566702442,100,6.8,-58.16,73.4,2.24
97,Grand Gaube,75,MU,1566702617,88,-20.01,57.66,69.8,8.05
98,Sao Filipe,48,CV,1566702618,85,14.9,-24.5,78.65,13.8
99,Zhaotong,23,CN,1566702619,69,27.34,103.71,70.53,2.33
100,Cidreira,35,BR,1566702621,74,-30.17,-50.22,57.21,12.03
101,Puerto Ayora,89,EC,1566702622,92,-0.74,-90.35,71.01,3.0
102,Fatezh,13,RU,1566702623,87,52.09,35.86,46.99,5.53
103,Tiksi,94,RU,1566702624,88,71.64,128.87,49.02,13.35
104,Middelburg,65,NL,1566702600,72,51.5,3.61,66.2,8.05
105,Fortuna,1,US,1566702458,82,40.6,-124.16,63.0,10.29
106,Saskylakh,99,RU,1566702628,79,71.97,114.09,55.18,4.97
107,Christchurch,1,NZ,1566702564,42,-43.53,172.64,64.0,9.17
108,East London,0,ZA,1566702630,36,-33.02,27.91,60.31,4.47
109,Dyurtyuli,97,RU,1566702632,81,55.49,54.86,56.84,10.16
110,Mar del Plata,43,AR,1566702633,69,-46.43,-67.52,45.37,17.72
111,Narsaq,0,GL,1566702634,25,60.91,-46.05,53.6,18.34
112,Zhaozhou,0,CN,1566702636,61,45.71,125.27,74.12,5.46
113,Narasannapeta,100,IN,1566702637,76,18.42,84.04,83.49,6.33
114,Alugan,100,PH,1566702638,53,12.22,125.48,92.58,2.57
115,Yumen,100,CN,1566702639,16,40.29,97.04,80.7,21.43
116,Kropotkin,75,RU,1566702641,39,45.43,40.58,82.0,8.43
117,Tremedal,100,BR,1566702642,86,-14.98,-41.41,62.31,3.96
118,Okhotsk,100,RU,1566702643,78,59.36,143.24,57.7,11.14
119,Moron,47,HT,1566702644,77,18.56,-74.26,81.28,3.15
120,Mandera,27,ET,1566702646,75,3.94,41.86,73.7,9.69
121,Quelimane,98,MZ,1566702647,96,-17.88,36.89,65.51,3.49
122,Castro,75,CL,1566702648,100,-42.48,-73.76,42.8,4.7
123,Otradnoye,29,RU,1566702650,93,59.77,30.8,53.01,6.71
124,Karratha,10,AU,1566702651,15,-20.74,116.85,84.75,1.77
125,Najran,40,SA,1566702652,30,17.54,44.22,82.4,5.82
126,General Roca,0,AR,1566702653,71,-39.03,-67.58,53.6,13.13
127,Aykhal,0,RU,1566702655,54,65.95,111.51,59.0,4.47
128,Kununurra,0,AU,1566702656,6,-15.77,128.74,91.4,17.22
129,Umm Lajj,0,SA,1566702657,77,25.02,37.27,86.25,10.71
130,Baie-Comeau,1,CA,1566702658,93,49.22,-68.15,51.8,1.74
131,Kloulklubed,90,PW,1566702659,78,7.04,134.26,78.8,18.34
132,Porto Novo,75,BR,1566702661,82,-23.68,-45.44,59.0,9.17
133,Cabo San Lucas,5,MX,1566702368,78,22.89,-109.91,82.99,3.36
134,Terrace,75,CA,1566702663,82,54.52,-128.61,59.0,8.05
135,Itarema,1,BR,1566702664,85,-2.92,-39.92,74.87,9.6
136,Chicama,90,PE,1566702665,93,-7.84,-79.15,60.8,9.17
137,Ahipara,91,NZ,1566702667,90,-35.17,173.16,60.01,3.0
138,Vila Velha,75,BR,1566702668,78,-3.71,-38.6,79.0,13.87
139,Juarez,0,AR,1566702669,71,-38.95,-67.92,53.6,13.13
140,Mahebourg,75,MU,1566702559,88,-20.41,57.7,69.8,8.05
141,Saint-Philippe,1,CA,1566702672,93,45.36,-73.48,63.0,5.82
142,Nemuro,40,JP,1566702673,64,43.32,145.57,69.8,10.29
143,Batemans Bay,74,AU,1566702674,56,-35.71,150.18,61.0,4.0
144,Port Elizabeth,1,US,1566702675,87,39.31,-74.98,71.01,3.4
145,Hadishahr,40,AZ,1566702676,49,38.84,45.66,69.8,2.24
146,Atar,19,MR,1566702678,45,20.52,-13.05,82.23,10.89
147,Hambantota,75,LK,1566702679,100,6.12,81.12,80.6,6.93
148,Sao Joao da Barra,19,BR,1566702680,94,-21.64,-41.05,62.63,3.11
149,Meadow Lake,89,CA,1566702658,89,54.13,-108.44,56.71,2.46
150,Sapatgram,81,IN,1566702683,76,26.35,90.16,85.15,1.41
151,Pangnirtung,99,CA,1566702684,74,66.15,-65.72,40.87,6.04
152,Brainerd,90,US,1566702685,63,46.36,-94.2,66.2,6.93
153,Chokurdakh,100,RU,1566702686,85,70.62,147.9,56.82,4.34
154,Troitsko-Pechorsk,100,RU,1566702688,88,62.71,56.19,48.38,4.79
155,Makakilo City,90,US,1566702689,55,21.35,-158.09,89.6,9.17
156,Suntar,74,RU,1566702690,64,62.16,117.65,65.51,4.61
157,Kirakira,100,SB,1566702691,85,-10.46,161.92,79.32,3.71
158,Muros,75,ES,1566702693,100,42.77,-9.06,64.99,3.36
159,Iqaluit,40,CA,1566702694,81,63.75,-68.52,46.4,9.17
160,Mayumba,100,GA,1566702695,88,-3.44,10.65,72.05,4.76
161,Filadelfia,0,PY,1566702696,49,-22.35,-60.04,73.81,7.54
162,Buala,100,SB,1566702698,89,-8.15,159.59,76.13,8.41
163,Itoman,75,JP,1566702699,66,26.12,127.67,89.6,14.99
164,Horsham,81,AU,1566702700,65,-36.71,142.2,51.2,8.86
165,Ihosy,30,MG,1566702701,96,-22.4,46.13,54.53,12.8
166,Jinji,100,CN,1566702703,63,22.16,112.49,93.0,6.26
167,Dikson,100,RU,1566702704,96,73.51,80.55,40.73,12.88
168,Guymon,40,US,1566702705,69,36.68,-101.48,78.8,13.87
169,Walvis Bay,0,NA,1566702706,13,-22.95,14.51,116.6,3.36
170,Richards Bay,0,ZA,1566702707,52,-28.77,32.06,69.13,19.95
171,Denpasar,40,ID,1566702421,74,-8.65,115.22,82.4,12.75
172,Hualmay,100,PE,1566702710,91,-11.1,-77.61,58.22,11.3
173,Nalut,0,LY,1566702711,68,31.86,10.98,69.99,5.79
174,Ancud,75,CL,1566702713,100,-41.87,-73.83,42.8,4.7
175,Hasaki,20,JP,1566702714,61,35.73,140.83,88.0,5.82
176,Aguilas,0,ES,1566702715,80,37.41,-1.58,66.99,1.99
177,Banda Aceh,100,ID,1566702716,82,5.56,95.32,78.65,13.11
178,Freeport,37,BS,1566702718,78,26.54,-78.7,84.43,14.7
179,Longyearbyen,75,NO,1566702719,86,78.22,15.63,37.4,10.29
180,Manono,0,CD,1566702720,45,-7.3,27.4,67.37,2.55
181,Lafiagi,98,NG,1566702721,87,8.85,5.42,73.29,2.33
182,Fairbanks,1,US,1566702631,36,64.84,-147.72,60.8,8.05
183,Comodoro Rivadavia,0,AR,1566702594,66,-45.87,-67.48,51.8,16.11
184,Puri,16,ID,1566702725,44,-7.54,112.45,87.74,15.57
185,Port Lincoln,90,AU,1566702726,74,-34.72,135.86,52.37,12.15
186,Los Llanos de Aridane,0,ES,1566702728,88,28.66,-17.92,73.4,19.46
187,Hirara,75,JP,1566702729,74,24.8,125.28,87.8,21.92
188,Rio Gallegos,0,AR,1566702730,76,-51.62,-69.22,37.4,1.12
189,Iracoubo,9,GF,1566702731,88,5.48,-53.21,74.55,1.86
190,Merrill,1,US,1566702733,22,42.03,-121.6,75.99,11.41
191,Puksoozero,71,RU,1566702734,97,62.59,40.61,45.51,7.49
192,Verkhnevilyuysk,0,RU,1566702735,57,63.45,120.31,65.85,5.21
193,Dongsheng,0,CN,1566702737,64,29.72,112.52,87.58,11.34
194,Laguna,0,BZ,1566702738,94,16.17,-88.94,80.6,2.91
195,Nouadhibou,46,MR,1566702739,94,20.93,-17.03,71.6,9.17
196,Vao,54,EE,1566702740,93,59.1,26.19,52.32,4.23
197,Rajula,97,IN,1566702741,78,21.04,71.44,79.21,7.58
198,Katrineholm,9,SE,1566702736,100,59.0,16.21,57.0,4.54
199,Bintulu,75,MY,1566702744,79,3.17,113.03,86.0,6.93
200,Alice Springs,0,AU,1566702583,37,-23.7,133.88,66.2,10.29
201,Isangel,63,VU,1566702746,67,-19.55,169.27,70.55,19.19
202,Maceio,40,BR,1566702747,94,-9.67,-35.74,73.4,3.36
203,Bubaque,97,GW,1566702749,85,11.28,-15.83,79.62,20.27
204,Mount Isa,0,AU,1566702750,12,-20.73,139.49,80.6,9.17
205,Aquiraz,75,BR,1566702693,78,-3.9,-38.39,79.0,13.87
206,Faya,5,SA,1566702752,88,18.39,42.45,66.2,1.16
207,Tsabong,0,BW,1566702753,22,-26.02,22.4,54.53,7.54
208,Port Augusta,40,AU,1566702755,54,-32.49,137.76,55.99,11.41
209,Calvinia,5,ZA,1566702756,28,-31.47,19.78,48.59,1.45
210,Siilinjarvi,0,FI,1566702757,93,63.08,27.67,50.0,3.36
211,Qaqortoq,0,GL,1566702759,25,60.72,-46.03,53.6,18.34
212,Namibe,67,AO,1566702760,82,-15.19,12.15,67.24,4.97
213,Labuhan,98,ID,1566702761,39,-2.54,115.51,96.22,1.57
214,Tuktoyaktuk,90,CA,1566702762,87,69.44,-133.03,44.6,20.8
215,Guerrero Negro,4,MX,1566702764,79,27.97,-114.04,74.66,9.62
216,Carnarvon,0,ZA,1566702765,28,-30.97,22.13,52.37,7.56
217,Cordoba,100,AR,1566702766,53,-27.78,-67.24,52.43,2.68
218,Arraial do Cabo,86,BR,1566702767,81,-22.97,-42.02,66.9,4.76
219,Komsomolskiy,24,RU,1566702769,83,67.55,63.78,40.17,7.36
220,Were Ilu,0,ET,1566702770,85,10.6,39.43,54.59,4.59
221,Hamilton,5,CA,1566702594,77,43.26,-79.87,63.0,4.7
222,Ballina,92,IE,1566702772,94,54.11,-9.15,60.01,3.0
223,Solwezi,47,ZM,1566702774,69,-12.18,26.4,50.0,7.65
224,Lorengau,100,PG,1566702775,74,-2.02,147.27,84.3,11.83
225,Lebu,75,ET,1566702776,93,8.96,38.73,55.4,2.89
226,Half Moon Bay,1,US,1566702777,82,37.46,-122.43,73.4,8.05
227,Saldanha,75,PT,1566702779,46,41.42,-6.55,67.1,2.28
228,Corinto,40,CO,1566702780,73,3.17,-76.26,73.4,10.29
229,Den Helder,49,NL,1566702781,82,52.96,4.76,66.99,4.7
230,Aloleng,100,PH,1566702782,81,16.13,119.78,83.91,16.55
231,Avarua,88,CK,1566702784,74,-21.21,-159.78,78.8,8.05
232,Manokwari,75,ID,1566702785,79,-0.87,134.08,79.39,5.06
233,Ulladulla,90,AU,1566702786,55,-35.36,150.48,60.8,12.75
234,Marsa Matruh,0,EG,1566702787,83,31.35,27.25,77.0,5.26
235,Mehamn,27,NO,1566702789,73,71.03,27.85,39.77,7.05
236,Igarka,96,RU,1566702790,80,67.47,86.57,58.67,15.64
237,Sahuaripa,76,MX,1566702791,94,29.05,-109.23,67.1,1.12
238,Mayo,75,CA,1566702793,41,63.59,-135.9,59.0,3.36
239,Carberry,75,CA,1566702794,73,49.87,-99.36,73.4,13.87
240,Baker City,1,US,1566702795,37,44.77,-117.83,78.8,9.17
241,Northam,86,AU,1566702796,51,-31.65,116.67,60.8,9.17
242,Tahe,0,CN,1566702797,49,52.34,124.71,73.4,4.29
243,Pocone,30,BR,1566702799,33,-16.26,-56.62,78.9,3.29
244,Bambous Virieux,75,MU,1566702800,88,-20.34,57.76,69.8,8.05
245,Karpogory,91,RU,1566702801,94,64.0,44.44,48.21,8.43
246,Nyurba,0,RU,1566702802,59,63.29,118.35,65.67,3.71
247,Remanso,12,BR,1566702804,58,-9.62,-42.08,71.72,7.74
248,Qaanaaq,100,GL,1566702805,76,77.48,-69.36,35.52,12.73
249,Saint-Leu,75,RE,1566702806,78,-21.15,55.28,71.6,19.46
250,Lebanon,90,US,1566702808,67,40.34,-76.42,66.0,5.55
251,Pindiga,100,NG,1566702809,96,9.98,10.93,70.21,6.62
252,Iquique,90,CL,1566702810,67,-20.22,-70.14,60.8,5.82
253,Tasiilaq,100,GL,1566702811,81,65.61,-37.64,42.8,12.75
254,Pamekasan,32,ID,1566702813,40,-7.16,113.47,90.33,6.11
255,Karsava,47,LV,1566702814,93,56.78,27.69,50.21,1.9
256,Praia da Vitoria,20,PT,1566702815,82,38.73,-27.07,68.0,15.61
257,Agadez,100,NE,1566702816,61,16.97,7.99,79.46,7.23
258,Delfzijl,1,NL,1566702818,87,53.33,6.91,64.0,4.7
259,Synya,100,RU,1566702819,86,65.37,58.04,46.13,6.24
260,Kavieng,83,PG,1566702820,77,-2.57,150.8,82.58,12.77
261,Cortez,1,US,1566702821,32,37.35,-108.58,68.0,4.76
262,Mizdah,0,LY,1566702822,75,31.45,12.98,67.62,6.69
263,Shakawe,0,BW,1566702824,24,-18.36,21.84,49.56,5.82
264,Bang Saphan,75,TH,1566702544,100,11.21,99.51,77.0,5.82
265,Barrow,68,AR,1566702826,79,-38.31,-60.23,53.22,14.47
266,Faanui,0,PF,1566702827,65,-16.48,-151.75,78.42,7.45
267,Ibra,0,OM,1566702829,39,22.69,58.55,83.53,0.6
268,Esperance,100,AU,1566702830,66,-33.86,121.89,51.8,8.05
269,Gisenyi,17,CD,1566702831,84,-1.69,29.26,54.5,0.96
270,Alyangula,100,AU,1566702832,42,-13.85,136.42,84.2,9.17
271,Emirdag,0,TR,1566702627,75,39.02,31.15,62.72,3.65
272,Chuy,100,UY,1566702835,82,-33.69,-53.46,53.04,10.87
273,Fort Nelson,75,CA,1566702836,72,58.81,-122.69,60.8,9.17
274,Pochutla,4,MX,1566702800,86,15.74,-96.47,81.0,2.13
275,Kisangani,36,CD,1566702838,89,0.52,25.21,69.24,2.89
276,North Bend,1,US,1566702840,93,43.41,-124.22,66.0,9.17
277,Yerbogachen,100,RU,1566702841,62,61.28,108.01,63.6,5.73
278,Lang Son,50,VN,1566702842,62,21.83,106.73,88.1,4.03
279,College,1,US,1566702843,36,64.86,-147.8,62.6,8.05
280,Lazaro Cardenas,40,MX,1566702845,61,28.39,-105.62,77.0,5.17
281,Blue Springs,90,US,1566702655,68,39.02,-94.28,71.6,6.93
282,Katsuura,75,JP,1566702847,48,33.93,134.5,84.2,8.05
283,Itaituba,67,BR,1566702848,73,-4.26,-55.99,74.82,2.48
284,Panjab,0,AF,1566702849,44,34.38,67.02,49.71,2.64
285,Torbay,75,CA,1566702851,76,47.66,-52.73,48.99,11.41
286,Sindor,100,RU,1566702852,96,62.87,51.9,49.29,8.12
287,Elbistan,0,TR,1566702853,78,38.2,37.19,55.67,3.24
288,Taunggyi,61,MM,1566702854,75,20.78,97.03,79.41,0.98
289,Ponta do Sol,0,BR,1566702856,65,-20.63,-46.0,58.28,5.73
290,Thunder Bay,20,CA,1566702834,82,48.41,-89.26,59.0,6.93
291,Ilulissat,20,GL,1566702858,45,69.22,-51.1,44.6,3.36
292,Littlehampton,75,AU,1566702859,62,-35.05,138.87,57.99,12.75
293,Noumea,20,NC,1566702654,47,-22.28,166.46,75.2,13.87
294,Ati,100,TD,1566702862,84,13.21,18.34,75.97,8.9
295,Obo,36,CF,1566702863,97,5.39,26.49,66.93,0.51
296,Cassilandia,0,BR,1566702864,32,-19.11,-51.73,69.24,9.08
297,Kodinsk,100,RU,1566702865,97,58.6,99.18,53.92,5.3
298,Roros,100,NO,1566702867,100,62.57,11.38,51.8,4.7
299,Tabas,0,IR,1566702868,16,33.6,56.92,75.2,6.93
300,Mananjary,0,MG,1566702869,79,-19.16,46.8,53.76,7.81
301,Leningradskiy,76,RU,1566702870,87,69.38,178.42,42.51,8.25
302,Unai,0,BR,1566702872,37,-16.36,-46.91,67.98,3.62
303,Caravelas,66,BR,1566702873,83,-17.73,-39.27,70.41,8.08
304,Uspenka,0,UA,1566702874,82,48.39,39.16,65.22,5.73
305,Manado,20,ID,1566702875,41,1.49,124.85,96.8,3.36
306,Talnakh,40,RU,1566702877,87,69.49,88.39,57.2,8.95
307,Broken Hill,5,AU,1566702878,40,-31.97,141.45,53.6,19.46
308,Saint-Pierre,0,FR,1566702879,82,48.95,4.24,60.8,1.12
309,Qasigiannguit,20,GL,1566702880,45,68.82,-51.19,44.6,3.36
310,San Jeronimo,17,PE,1566702882,92,-13.65,-73.37,45.62,0.2
311,Luderitz,0,NA,1566702883,20,-26.65,15.16,68.0,1.12
312,San Matias,31,BO,1566702885,30,-16.36,-58.4,80.81,4.56
313,Lincoln,0,GB,1566702886,87,53.23,-0.54,61.0,4.7
314,Saint-Joseph,0,FR,1566702887,82,43.56,6.97,75.2,4.7
315,Lagoa,0,PT,1566702888,83,37.14,-8.45,73.0,5.82
316,Sayanogorsk,66,RU,1566702890,56,53.09,91.41,62.49,11.1
317,Nortelandia,60,BR,1566702891,31,-14.45,-56.8,80.47,1.72
318,Shingu,75,JP,1566702892,74,33.72,135.99,78.8,6.93
319,Campos Gerais,0,BR,1566702893,88,-21.23,-45.76,55.16,6.8
320,Sterling,90,US,1566702672,68,39.0,-77.4,69.01,5.82
321,Saint-Georges,0,CA,1566702896,89,46.12,-70.67,52.0,2.39
322,Villena,20,ES,1566702897,88,38.64,-0.87,73.0,2.24
323,Novaya Ladoga,5,RU,1566702898,99,60.11,32.31,53.01,7.14
324,Kasongo-Lunda,0,CD,1566702900,72,-6.48,16.82,65.96,2.84
325,Kamuli,51,UG,1566702901,96,0.94,33.12,64.31,2.51
326,Waingapu,0,ID,1566702902,46,-9.65,120.26,83.1,12.64
327,Varna,0,BG,1566702904,60,43.22,27.9,73.4,9.17
328,Mahibadhoo,100,MV,1566702905,72,3.78,72.97,81.98,10.02
329,Awjilah,0,LY,1566702906,70,29.14,21.3,74.22,12.19
330,Weihe,13,CN,1566702907,67,32.99,105.33,75.11,3.87
331,Ardakan,0,IR,1566702909,19,32.31,54.02,69.8,2.24
332,Mtimbira,77,TZ,1566702912,67,-8.78,36.35,70.25,2.55
333,Salalah,75,OM,1566702913,94,17.01,54.1,78.8,5.82
334,Yulara,0,AU,1566702914,42,-25.24,130.99,66.2,14.99
335,Morristown,20,US,1566702916,78,36.21,-83.29,77.0,9.17
336,Hami,22,CN,1566702918,24,42.84,93.51,80.63,14.79
337,Shihezi,86,CN,1566702921,34,44.3,86.03,76.85,2.75
338,Balkhash,0,KZ,1566702922,37,46.84,74.98,68.0,13.42
339,Omboue,100,GA,1566702924,87,-1.57,9.26,74.48,7.7
340,Erenhot,0,CN,1566702925,31,43.65,111.97,81.6,17.11
341,Ouro Sogui,100,SN,1566702927,58,15.61,-13.32,82.65,19.57
342,Husavik,100,CA,1566702928,47,50.56,-96.99,75.99,5.99
343,Camargo,46,MX,1566702929,53,27.69,-105.17,76.44,11.83
344,Bilma,10,NE,1566702930,55,18.69,12.92,84.75,3.85
345,Kenai,1,US,1566702681,34,60.55,-151.26,68.0,9.17
346,Robertson,90,AU,1566702933,55,-34.59,150.59,61.0,12.75
347,Sangmelima,100,CM,1566702934,98,2.93,11.98,65.04,3.13
348,Praia,0,BR,1566702935,63,-20.25,-43.81,64.4,9.17
349,Portland,75,US,1566702936,72,43.66,-70.25,64.4,4.7
350,Ixtapa,75,MX,1566702938,84,20.71,-105.21,86.0,9.33
351,Severo-Kurilsk,100,RU,1566702939,90,50.68,156.12,48.79,43.66
352,Beringovskiy,12,RU,1566702940,56,63.05,179.32,65.42,9.31
353,Touros,75,BR,1566702942,94,-5.2,-35.46,73.4,3.36
354,Danville,1,US,1566702943,32,37.82,-122.0,81.0,6.93
355,Zeya,66,RU,1566702944,49,53.74,127.27,72.23,5.23
356,Appleton,5,US,1566702945,63,44.26,-88.41,62.6,6.89
357,Marsabit,70,KE,1566702947,65,2.34,37.99,73.18,10.36
358,Waipawa,0,NZ,1566702948,68,-39.94,176.59,57.99,11.99
359,Lethbridge,40,CA,1566702949,33,49.69,-112.85,71.6,19.46
360,Rampur Hat,72,IN,1566702950,80,24.18,87.79,82.38,8.61
361,Ngunguru,70,NZ,1566702952,66,-35.62,174.5,61.0,10.0
362,Vestmannaeyjar,100,IS,1566702953,86,63.44,-20.27,50.27,6.02
363,Newport,1,US,1566702878,87,41.49,-71.31,64.99,6.93
364,Ostrovnoy,83,RU,1566702955,94,68.05,39.51,42.09,1.83
365,Natal,40,BR,1566702831,88,-5.81,-35.21,73.4,4.7
366,Meybod,0,IR,1566702958,19,32.25,54.02,71.6,2.24
367,Tomatlan,100,MX,1566702959,75,19.93,-105.25,83.98,13.89
368,Helong,85,CN,1566702960,65,25.94,116.13,85.4,19.37
369,Plouzane,90,FR,1566702961,100,48.38,-4.62,61.0,2.24
370,Bimbo,0,CF,1566702963,100,4.33,18.53,71.6,2.24
371,Vanavara,100,RU,1566702964,77,60.35,102.28,58.94,4.81
372,Concepcion del Oro,100,MX,1566702965,59,24.63,-101.42,70.39,6.24
373,Verkhnyaya Khava,0,RU,1566702966,71,51.84,39.93,53.6,6.71
374,Bathsheba,40,BB,1566702968,78,13.22,-59.52,82.4,18.34
375,Vila Franca do Campo,75,PT,1566702969,94,37.72,-25.43,71.01,11.41
376,Sandviken,100,SE,1566702970,91,60.62,16.77,53.01,1.01
377,Port-Gentil,96,GA,1566702972,87,-0.72,8.78,75.27,11.7
378,Tiznit,27,MA,1566702973,69,29.7,-9.73,71.74,2.59
379,Luancheng,0,CN,1566702974,73,37.88,114.65,75.2,4.47
380,Inhambane,0,MZ,1566702806,93,-23.87,35.38,56.87,2.53
381,Tuatapere,100,NZ,1566702977,96,-46.13,167.69,48.0,5.99
382,San Nicolas,100,PH,1566702978,77,16.07,120.76,85.74,10.27
383,Humboldt,100,CA,1566702979,94,52.21,-105.12,61.73,5.12
384,Ambon,90,FR,1566702980,93,47.55,-2.56,63.0,4.7
385,Lujan,43,AR,1566702982,69,-46.57,-67.67,45.37,17.72
386,Mikhaylov,45,RU,1566702983,85,54.23,39.03,54.0,7.31
387,Cockburn Town,12,TC,1566702854,82,21.46,-71.14,83.55,19.71
388,Te Anau,100,NZ,1566702986,87,-45.41,167.72,42.47,6.58
389,Paciran,27,ID,1566702987,42,-6.9,112.33,88.95,9.15
390,Santa Rosa,14,AR,1566702988,72,-36.62,-64.29,53.99,10.76
391,Ponce,97,PR,1566702990,73,18.01,-66.61,84.0,1.99
392,Abu Samrah,0,SY,1566702991,52,35.3,37.18,74.78,7.58
393,Port Hedland,0,AU,1566702992,22,-20.31,118.58,86.0,8.05
394,Altamont,1,CA,1566702994,69,49.4,-98.5,75.0,23.04
395,Uvira,64,CD,1566702996,77,-3.41,29.14,51.67,0.18
396,Boa Vista,0,BR,1566702997,74,2.82,-60.67,82.4,3.36
397,Villa Corzo,5,MX,1566702998,78,16.19,-93.27,78.8,3.36
398,Auburn,40,US,1566702727,87,44.1,-70.23,64.0,2.84
399,Ngaoundere,100,CM,1566703001,96,7.32,13.58,62.6,1.74
400,Beidao,100,CN,1566703002,77,34.57,105.89,67.8,3.74
401,Algeciras,8,ES,1566703003,88,36.13,-5.45,73.4,17.22
402,Sveti Nikole,20,MK,1566703004,72,41.86,21.94,66.2,1.77
403,Bandarbeyla,0,SO,1566703006,63,9.49,50.81,78.24,25.72
404,Zhuhai,0,CN,1566703007,64,40.71,112.04,71.6,2.24
405,Kopervik,100,NO,1566703008,82,59.28,5.31,64.0,10.29
406,Tarko-Sale,33,RU,1566703009,93,64.92,77.78,59.0,2.15
407,Sabya,40,SA,1566703011,70,17.15,42.62,89.6,8.05
408,Gelibolu,0,TR,1566703012,88,40.41,26.67,73.4,9.17
409,Yuzhno-Kurilsk,12,RU,1566703013,83,44.03,145.86,61.32,7.29
410,Kabinda,48,CD,1566703014,34,-6.14,24.49,74.49,3.2
411,Luba,100,PH,1566703016,70,17.32,120.7,85.53,7.61
412,Sarankhola,91,BD,1566703017,89,22.31,89.79,80.78,8.48
413,Copiapo,99,CL,1566702991,81,-27.37,-70.33,53.6,2.24
414,Zhigansk,5,RU,1566703019,45,66.77,123.37,65.69,6.4
415,Saint-Denis,0,FR,1566703020,77,48.94,2.36,69.01,3.36
416,Coquimbo,0,CL,1566703022,93,-29.95,-71.34,51.8,4.7
417,Deputatskiy,41,RU,1566703023,64,69.3,139.9,58.62,9.35
418,Yankton,90,US,1566703024,73,42.87,-97.4,69.8,11.41
419,Strelka,16,RU,1566703025,75,58.08,93.03,62.43,3.4
420,Muyezerskiy,51,RU,1566703027,98,63.93,31.65,45.71,2.71
421,Rundu,0,NA,1566703028,28,-17.91,19.77,55.4,2.24
422,Polovinnoye,0,RU,1566703029,75,54.79,65.99,59.25,4.65
423,Geraldton,75,CA,1566703030,71,49.72,-86.95,57.2,8.05
424,Ukiah,1,US,1566703032,31,39.15,-123.21,87.8,6.93
425,Tanete,0,ID,1566703033,62,-3.94,119.78,85.73,12.24
426,Broome,55,GB,1566703034,93,52.47,1.45,62.01,1.12
427,Nizhniy Kuranakh,93,RU,1566703035,68,58.84,125.49,67.11,5.08
428,Bonavista,0,CA,1566703037,84,48.65,-53.11,46.99,3.0
429,Port Blair,100,IN,1566702965,81,11.67,92.75,81.75,25.41
430,Miramar,0,CR,1566702769,78,10.09,-84.73,73.4,6.93
431,Banjarmasin,20,ID,1566703040,58,-3.32,114.59,87.8,2.24
432,Kurumkan,100,RU,1566703042,91,54.33,110.32,52.07,7.67
433,Conceicao do Araguaia,77,BR,1566703043,34,-8.26,-49.26,79.35,1.45
434,Poum,0,MK,1566703044,68,41.28,20.71,59.37,4.09
435,Kesztolc,0,HU,1566703046,94,47.71,18.8,73.99,9.17
436,Ust-Ilimsk,69,RU,1566703048,57,57.96,102.73,62.13,6.2
437,Chateau-Gontier,0,FR,1566703049,82,47.83,-0.7,68.0,3.36
438,Cayenne,0,GF,1566703050,100,4.94,-52.33,75.2,2.28
439,Pampa,1,US,1566702816,69,35.54,-100.96,80.6,14.99
440,Abha,5,SA,1566703053,77,18.22,42.5,66.2,2.82
441,Alcaniz,9,ES,1566703054,88,41.05,-0.13,61.0,3.49
442,Bambanglipuro,99,ID,1566703055,83,-7.95,110.28,74.73,8.14
443,Bedele,19,ET,1566703057,95,8.46,36.35,53.38,2.24
444,Cherskiy,97,RU,1566703058,32,68.75,161.3,69.98,4.05
445,Barinas,56,VE,1566703059,94,8.64,-70.23,71.83,3.71
446,Bratsk,100,RU,1566703042,82,56.15,101.63,57.2,2.24
447,Zhengjiatun,50,CN,1566703061,66,43.51,123.51,76.6,6.46
448,Balaipungut,100,ID,1566703063,72,1.11,101.31,84.72,2.17
449,Longyan,100,CN,1566703065,99,25.1,117.03,78.01,7.0
450,Semnan,0,IR,1566703066,14,35.58,53.39,69.8,6.33
451,Naryan-Mar,100,RU,1566703068,81,67.67,53.09,43.23,11.54
452,Tura,56,RU,1566703069,46,64.27,100.22,66.09,7.34
453,Caidian,0,CN,1566703070,49,30.59,114.03,89.6,4.47
454,Rumford,40,US,1566703071,87,44.55,-70.55,59.0,0.96
455,Constitucion,90,MX,1566703072,77,23.99,-104.67,64.99,13.87
456,Bireun,100,ID,1566702948,89,5.2,96.7,70.32,4.47
457,Sydney,0,AU,1566703026,18,-33.85,151.22,75.0,8.05
458,Palmas Bellas,20,PA,1566703076,88,9.23,-80.09,78.8,4.7
459,Belaya Gora,96,RU,1566703077,74,68.54,146.19,62.65,7.43
460,Lumajang,67,ID,1566703059,48,-8.14,113.22,76.78,3.11
461,Ouargaye,28,BF,1566703080,93,11.5,0.06,71.43,10.63
462,Muzhi,5,RU,1566703081,70,65.4,64.7,47.26,7.0
463,Hobyo,100,SO,1566703082,75,5.35,48.53,75.99,15.17
464,Moche,90,PE,1566703083,93,-8.17,-79.01,60.8,9.17
465,Miguel Calmon,98,BR,1566703085,94,-11.43,-40.6,61.57,11.14
466,Bollnas,100,SE,1566703086,88,61.35,16.39,53.6,3.53
467,Nizhnevartovsk,75,RU,1566703087,81,60.93,76.58,51.8,13.42
468,Ornskoldsvik,100,SE,1566703088,82,63.29,18.72,57.2,9.17
469,Rawson,67,AR,1566703089,53,-43.3,-65.11,54.44,18.05
470,Kijang,75,KR,1566703091,57,35.24,129.21,78.8,1.12
471,Srandakan,99,ID,1566703092,83,-7.94,110.25,74.73,8.14
472,Mayachnyy,0,RU,1566703093,87,52.68,55.69,53.9,6.55
473,Adra,0,ES,1566703094,64,36.75,-3.02,75.2,3.36
474,Hofn,83,IS,1566703096,73,64.25,-15.21,38.03,7.61
475,Acapulco,75,MX,1566703097,79,16.86,-99.88,84.2,4.7
476,Faro,0,PT,1566703098,83,37.02,-7.94,73.0,5.82
477,Bayir,0,TR,1566703100,82,37.27,28.22,68.0,2.24
478,Hudiksvall,100,SE,1566703101,83,61.73,17.1,52.79,2.86
479,Lugovoy,100,RU,1566703102,89,59.72,65.88,52.37,5.14
480,Aguimes,0,ES,1566703103,88,27.91,-15.45,79.0,23.04
481,Madurai,75,IN,1566703104,58,9.93,78.11,84.2,5.82
482,Harlingen,0,NL,1566703106,87,53.18,5.41,68.0,3.36
483,Tucupita,10,VE,1566703107,95,9.06,-62.05,74.22,4.18
484,Simpang,100,ID,1566703108,99,4.36,96.17,71.11,2.35
485,Olinda,40,AU,1566703109,46,-37.84,145.39,57.0,13.87
486,Taoudenni,70,ML,1566703111,40,22.68,-3.98,89.96,6.31
487,Rio Grande,100,BR,1566703112,85,-32.03,-52.1,55.99,6.85
488,Three Hills,75,CA,1566703113,87,51.7,-113.27,53.6,2.24
489,Murgab,0,TM,1566703114,42,37.5,61.97,68.0,4.7
490,Beyneu,86,KZ,1566703116,28,45.32,55.19,76.49,3.51
491,Apricena,5,IT,1566703117,78,41.78,15.44,71.6,8.05
492,Khorinsk,100,RU,1566703118,90,52.16,109.78,54.41,4.94
493,Lusambo,26,CD,1566703119,35,-4.97,23.44,71.99,2.77
494,Flin Flon,20,CA,1566703121,95,54.77,-101.88,58.85,2.84
495,Isla Vista,1,US,1566703054,88,34.41,-119.86,75.99,6.93
496,Ler,0,NO,1566703123,82,63.2,10.3,60.8,6.93
497,Axim,100,GH,1566703124,88,4.87,-2.24,75.2,8.5
498,Babstovo,100,RU,1566703126,90,48.12,132.48,60.45,4.18
499,Demba,5,CD,1566703127,34,-5.47,22.27,70.03,1.63
500,Sunrise Manor,20,US,1566702977,18,36.21,-115.07,100.4,9.17
501,Kumluca,0,TR,1566703129,49,36.37,30.29,65.31,6.51
502,Inta,80,RU,1566703130,79,66.04,60.13,42.87,7.27
503,Kilemary,35,RU,1566703132,95,56.78,46.86,53.04,9.95
504,Mozarlandia,0,BR,1566703133,46,-14.74,-50.57,74.03,3.58
505,Stranda,100,NO,1566703134,72,62.31,6.93,64.99,9.17
506,Boaco,20,NI,1566703135,78,12.47,-85.66,80.6,4.7
507,Fare,20,PF,1566703136,66,-16.7,-151.02,78.11,6.13
508,Matamoros,1,US,1566703138,84,25.87,-97.51,86.0,4.7
509,Meulaboh,100,ID,1566703139,86,4.14,96.13,76.96,12.5
510,Hay River,75,CA,1566703140,93,60.82,-115.79,51.8,8.05
511,Virginia Beach,90,US,1566702973,83,36.85,-75.98,73.99,13.87
512,Kiri Buru,100,IN,1566703143,82,22.08,85.35,79.62,1.28
513,Anadyr,20,RU,1566703144,63,64.73,177.51,64.4,4.47
514,Yaring,20,TH,1566703145,78,6.87,101.37,82.4,3.36
515,Santa Isabel do Rio Negro,7,BR,1566703146,87,-0.41,-65.02,74.84,2.48
516,Linxia,99,CN,1566703148,89,35.6,103.21,57.81,1.88
517,Along,0,IN,1566703149,49,28.17,94.8,77.03,3.6
518,Sioux Lookout,20,CA,1566703024,68,50.1,-91.92,69.8,8.05
519,Sedan,81,FR,1566703151,77,49.7,4.94,63.0,2.24
520,Veraval,0,FR,1566703153,63,49.65,0.71,66.2,6.93
521,Namatanai,100,PG,1566703154,75,-3.66,152.44,81.86,10.87
522,Carutapera,0,BR,1566703155,81,-1.2,-46.02,77.27,6.06
523,Kichera,100,RU,1566703156,85,55.93,110.1,57.07,7.63
524,Dedougou,83,BF,1566703157,94,12.47,-3.47,70.32,8.14
525,Upata,0,VE,1566703159,87,8.02,-62.41,79.0,2.93
526,Constantine,20,DZ,1566703160,88,36.36,6.61,66.2,2.24
527,Presidencia Roque Saenz Pena,0,AR,1566703161,65,-26.79,-60.44,61.95,6.55
528,Egvekinot,68,RU,1566703162,53,66.32,-179.17,59.64,5.66
529,Suda,90,RU,1566703163,93,59.15,37.56,53.6,4.47
530,Baiyin,20,CN,1566703165,64,36.55,104.13,69.8,4.47
531,San Andres,100,PH,1566703166,71,13.32,122.68,85.74,10.16
